$GNGGA,,4743.66,N,00322.25,W,1,12,0.93,0,M,1,M,1,M*3A
$IIXDR,P,1.00960,B,Barometer*29
$WIMWD,226.4,T,226.4,M,9.9,N,94384.0,M*58
$WIVHW,132.6,T,,,0.07,N,,*7C
$GNRMC,141551.61,A,4743.66,N,00322.25,W,0.01,173.69,240922,0,W,A,S*4C
$PMWV,097.97,T,9.89,K,A*66
$GNGGA,,4743.66,N,00322.25,W,1,12,0.93,0,M,1,M,1,M*3A
$IIXDR,P,1.00960,B,Barometer*29
$WIMWD,226.4,T,226.4,M,9.9,N,94384.0,M*58
$WIVHW,132.6,T,,,0.07,N,,*7C
$GNRMC,141551.61,A,4743.66,N,00322.25,W,0.01,173.69,240922,0,W,A,S*4C
$PMWV,097.97,T,9.89,K,A*66
$GNGGA,,4743.66,N,00322.25,W,1,12,0.93,0,M,1,M,1,M*3A
$IIXDR,P,1.00960,B,Barometer*29
$WIMWD,226.4,T,226.4,M,9.9,N,94384.0,M*58
$WIVHW,132.6,T,,,0.07,N,,*7C
$GNRMC,141551.61,A,4743.66,N,00322.25,W,0.01,173.69,240922,0,W,A,S*4C
$PMWV,097.97,T,9.89,K,A*66
$GNGGA,,4743.66,N,00322.25,W,1,12,0.93,0,M,1,M,1,M*3A
$IIXDR,P,1.00960,B,Barometer*29
$WIMWD,226.4,T,226.4,M,9.9,N,94384.0,M*58
$WIVHW,132.6,T,,,0.07,N,,*7C
$GNRMC,141551.61,A,4743.66,N,00322.25,W,0.01,173.69,240922,0,W,A,S*4C
$PMWV,097.97,T,9.89,K,A*66
$GNGGA,,4743.66,N,00322.25,W,1,12,0.93,0,M,1,M,1,M*3A
$IIXDR,P,1.00960,B,Barometer*29
$WIMWD,226.4,T,226.4,M,9.9,N,94384.0,M*58
$WIVHW,132.6,T,,,0.07,N,,*7C
$GNRMC,141551.61,A,4743.66,N,00322.25,W,0.01,173.69,240922,0,W,A,S*4C
$PMWV,097.97,T,9.89,K,A*66
$GNGGA,,4743.66,N,00322.25,W,1,12,0.93,0,M,1,M,1,M*3A
$IIXDR,P,1.00960,B,Barometer*29
$WIMWD,226.4,T,226.4,M,9.9,N,94384.0,M*58
$WIVHW,132.6,T,,,0.07,N,,*7C
$GNRMC,141551.61,A,4743.66,N,00322.25,W,0.01,173.69,240922,0,W,A,S*4C
$PMWV,097.97,T,9.89,K,A*66
$GNGGA,,4743.66,N,00322.25,W,1,12,0.93,0,M,1,M,1,M*3A
$IIXDR,P,1.00960,B,Barometer*29
$WIMWD,226.4,T,226.4,M,9.9,N,94384.0,M*58
$WIVHW,132.6,T,,,0.07,N,,*7C
$GNRMC,141551.61,A,4743.66,N,00322.25,W,0.01,173.69,240922,0,W,A,S*4C
$PMWV,097.97,T,9.89,K,A*66
$GNGGA,,4743.66,N,00322.25,W,1,12,0.93,0,M,1,M,1,M*3A
$IIXDR,P,1.00960,B,Barometer*29
$WIMWD,226.4,T,226.4,M,9.9,N,94384.0,M*58
$WIVHW,132.6,T,,,0.07,N,,*7C
$GNRMC,141551.61,A,4743.66,N,00322.25,W,0.01,173.69,240922,0,W,A,S*4C
$PMWV,097.97,T,9.89,K,A*66
$GNGGA,,4743.66,N,00322.25,W,1,12,0.93,0,M,1,M,1,M*3A
$IIXDR,P,1.00960,B,Barometer*29
$WIMWD,226.4,T,226.4,M,9.9,N,94384.0,M*58
$WIVHW,132.6,T,,,0.07,N,,*7C
$GNRMC,141551.61,A,4743.66,N,00322.25,W,0.01,173.69,240922,0,W,A,S*4C
$PMWV,097.97,T,9.89,K,A*66
$GNGGA,,4743.66,N,00322.25,W,1,12,0.93,0,M,1,M,1,M*3A
$IIXDR,P,1.00960,B,Barometer*29
$WIMWD,226.4,T,226.4,M,9.9,N,94384.0,M*58
$WIVHW,132.6,T,,,0.07,N,,*7C
$GNRMC,141551.61,A,4743.66,N,00322.25,W,0.01,173.69,240922,0,W,A,S*4C
$PMWV,097.97,T,9.89,K,A*66
$GNGGA,,4743.66,N,00322.25,W,1,12,0.93,0,M,1,M,1,M*3A
$IIXDR,P,1.00960,B,Barometer*29
$WIMWD,226.4,T,226.4,M,9.9,N,94384.0,M*58
$WIVHW,132.6,T,,,0.07,N,,*7C
$GNRMC,141551.61,A,4743.66,N,00322.25,W,0.01,173.69,240922,0,W,A,S*4C
$PMWV,097.97,T,9.89,K,A*66
------------------------------
$IILWY,A,10.0*1C
$IIMMB,,I,1.00302,B*67
$IIMWD,244.6,T,,,9.7,N,5.0,M*28
$IIVHW,168.8,T,,,0.0,N,,*54
$HCHDT,168.8,T*2E
$IIVPW,0.0,N,0.0,M*52
$IIMWV,75.6,R,9.7,N,A*07
$IIMWV,75.9,T,9.7,N,A*0E
$GPRMC,133908.998,A,4839.0795120,N,00200.9360360,W,0.0,51.9,031122,0.0,E,A*24
$GPVTG,51.9,T,51.9,M,0.0,N,0.0,K,A*23
$GPGLL,4839.0795120,N,00200.9360360,W,133908.998,A,A*46
$IILWY,A,10.0*1C
$IIMMB,,I,1.00300,B*65
$IIMWD,245.5,T,,,9.6,N,4.9,M*23
$IIVHW,168.9,T,,,0.1,N,,*54
$HCHDT,168.9,T*2F
$IIVPW,0.0,N,0.0,M*52
$IIMWV,76.4,R,9.6,N,A*07
$IIMWV,76.7,T,9.6,N,A*02
$GPRMC,133908.000,A,4839.0795120,N,00200.9360660,W,0.0,61.4,031122,0.0,E,A*27
$GPVTG,61.4,T,61.4,M,0.0,N,0.0,K,A*23
$GPGLL,4839.0795120,N,00200.9360660,W,133908.000,A,A*4B
$IILWY,A,10.0*1C
$IIMMB,,I,1.00302,B*67
$IIMWD,246.4,T,,,9.4,N,4.9,M*23
$IIVHW,168.9,T,,,0.1,N,,*54
$HCHDT,168.9,T*2F
$IIVPW,0.0,N,0.0,M*52
$IIMWV,77.1,R,9.4,N,A*01
$IIMWV,77.6,T,9.4,N,A*00
$GPRMC,133907.001,A,4839.0795120,N,00200.9360660,W,0.0,61.2,031122,0.0,E,A*2F
$GPVTG,61.2,T,61.2,M,0.0,N,0.0,K,A*23
$GPGLL,4839.0795120,N,00200.9360660,W,133907.001,A,A*45
$IILWY,A,10.0*1C
$IIMMB,,I,1.00300,B*65
$IIMWD,247.3,T,,,9.3,N,4.8,M*23
$IIVHW,169.0,T,,,0.1,N,,*5C
$HCHDT,169.0,T*27
$IIVPW,0.0,N,0.0,M*52
$IIMWV,78.0,R,9.2,N,A*09
$IIMWV,78.4,T,9.2,N,A*0B
$GPRMC,133906.000,A,4839.0795120,N,00200.9360780,W,0.1,24.3,031122,0.0,E,A*21
$GPVTG,24.3,T,24.3,M,0.1,N,0.1,K,A*23
$GPGLL,4839.0795120,N,00200.9360780,W,133906.000,A,A*4A